[
    {
        "address": "2138 Michigan Avenue",
        "city": "Detroit",
        "country": "USA",
        "e": "1",
        "hours": "Mon, Sun: 11AM-10PM, Tues-Thurs: 11AM-11PM, Fri-Sat: 11AM-12AM",
        "logo": "http://slowsbarbq.com/sites/slowsbarbq.com/files/logo.png",
        "name": "Slows Bar B Q",
        "phone_number": "(313) 962-9828",
        "postal_code": "48216",
        "state": "MI",
        "website": "http://slowsbarbq.com"
    },
    {
        "address": "4107 Cass Ave",
        "city": "Detroit",
        "country": "USA",
        "e": "2",
        "hours": "Sun-Thu: 11AM-9PM, Fri-Sat: 11AM-10PM",
        "logo": "http://slowstogo.com/sites/slowstogo.com/files/logo.png",
        "name": "Slows To Go",
        "phone_number": "(877) 569-7246",
        "postal_code": "48201",
        "state": "MI",
        "website": "http://slowstogo.com"
    },
    {
        "address": "27799 Woodward Avenue",
        "city": "Berkley",
        "country": "USA",
        "e": "3",
        "hours": "Mon-Sat: 11AM-11PM, Sun: 11AM-9PM",
        "logo": "http://media-cdn.tripadvisor.com/media/photo-s/04/a9/8a/66/vinsetta-garage.jpg",
        "name": "Vinsetta Garage",
        "phone_number": "(248) 548-7711",
        "postal_code": "48072",
        "state": "MI",
        "website": "http://www.vinsettagarage.com"
    },
    {
        "address": "31542 Woodward Avenue",
        "city": "Royal Oak",
        "country": "USA",
        "e": "4",
        "hours": "Mon-Sat: 11AM-2PM, Sun: Closed",
        "logo": "https://scontent-iad3-1.xx.fbcdn.net/hphotos-xfp1/v/t1.0-9/66320_10151115515162909_249423991_n.jpg?oh=d2dde0537aa381814e7d5ebbb3c1743f&oe=56144375",
        "name": "Redcoat Tavern",
        "phone_number": "(248) 549-0300",
        "postal_code": "48073",
        "state": "MI",
        "website": ""
    },
    {
        "address": "6745 Orchard Lake Road",
        "city": "West Bloomfield",
        "country": "USA",
        "e": "5",
        "hours": "Mon-Sat: 11AM-2PM, Sun: 12PM-9PM",
        "logo": "https://scontent-iad3-1.xx.fbcdn.net/hphotos-xfp1/v/t1.0-9/66320_10151115515162909_249423991_n.jpg?oh=d2dde0537aa381814e7d5ebbb3c1743f&oe=56144375",
        "name": "Redcoat Tavern",
        "phone_number": "(248) 865-0500",
        "postal_code": "48322",
        "state": "MI",
        "website": ""
    },
    {
        "address": "18 South Main",
        "city": "Clarkston",
        "country": "USA",
        "e": "6",
        "hours": "Mon-Thu: 4PM-10PM, Fri: 4PM-11PM, Sat: 12PM-11PM, Sun: 12PM-9PM",
        "logo": "http://www.clarkston.org/portals/0/unionwoodshoplogo.jpg",
        "name": "Union Woodshop",
        "phone_number": "(248) 625-5660",
        "postal_code": "48346",
        "state": "MI",
        "website": "http://unionwoodshop.com"
    },
    {
        "address": "54 S Main Street",
        "city": "Village of Clarkston",
        "country": "USA",
        "e": "7",
        "hours": "Mon-Thu: 11AM-12AM, Fri-Sat: 11AM-2AM, Sun: 9AM-9PM",
        "logo": "http://4thebest.clickondetroit.com/uploads/businesses/9139/logo-2013-02-07.png",
        "name": "Clarkston Union Bar & Kitchen",
        "phone_number": "(248) 620-6100",
        "postal_code": "48346",
        "state": "MI",
        "website": "http://clarkstonunion.com"
    },
    {
        "address": "2040 Park Avenue",
        "city": "Detroit",
        "country": "USA",
        "e": "8",
        "hours": "Sun: 11AM-12AM, Mon-Thu: 10AM-12AM, Fri: 10AM-2AM, Sat: 11AM-2AM",
        "logo": "https://cdn2.vox-cdn.com/uploads/chorus_image/image/38707656/BucharestGrill.0.jpg",
        "name": "Bucharest Grill",
        "phone_number": "(313) 965-3111",
        "postal_code": "48226",
        "state": "MI",
        "website": "http://www.bucharestgrill.com"
    },
    {
        "address": "1623 Michigan Avenue",
        "city": "Detroit",
        "country": "USA",
        "e": "",
        "hours": "Mon-Fri: 10AM-11PM, Sat-Sun: 11AM-11PM",
        "logo": "https://cdn2.vox-cdn.com/uploads/chorus_image/image/38707656/BucharestGrill.0.jpg",
        "name": "Bucharest Grill",
        "phone_number": "(313) 965-3112",
        "postal_code": "48216",
        "state": "MI",
        "website": "http://www.bucharestgrill.com"
    },
    {
        "address": "1241 Woodward Avenue",
        "city": "Detroit",
        "country": "USA",
        "e": "9",
        "hours": "Mon-Thu: 8AM-3PM, Fri-Sun: 8AM-4PM",
        "logo": "http://www.trademarkia.com/logo-images/tekadams-foods/the-hudson-cafe-1241-woodward-avenue-breakfast--lunch-86079381.jpg",
        "name": "The Hudson Cafe",
        "phone_number": "(313) 237-1000",
        "postal_code": "48226",
        "state": "MI",
        "website": "http://www.hudson-cafe.com/index-3.html"
    },
    {
        "address": "1128 Washington Blvd",
        "city": "Detroit",
        "country": "USA",
        "e": "10",
        "hours": "Mon-Thu: 5PM-10PM, Fri-Sat: 5PM-11PM, Sun: 5PM-9PM",
        "logo": "http://static1.squarespace.com/static/503cf96c84ae6efede2f7e20/t/54df62a6e4b0be2d4c8cfd05/1436920162169/?format=1500w",
        "name": "Roast",
        "phone_number": "(313) 961-2500",
        "postal_code": "48226",
        "state": "MI",
        "website": "http://www.roastdetroit.com"
    },
    {
        "address": "114 W Lafayette Blvd",
        "city": "Detroit",
        "country": "USA",
        "e": "11",
        "hours": "Open 24/7",
        "logo": "http://www.americanconeyisland.com/images/kit%20logo.png",
        "name": "American Coney Island",
        "phone_number": "(313) 961-7758",
        "postal_code": "48226",
        "state": "MI",
        "website": "http://www.americanconeyisland.com"
    },
    {
        "address": "2200 W Lafayette Blvd",
        "city": "Detroit",
        "country": "USA",
        "e": "12",
        "hours": "Mon-Wed: 11AM-12AM, Thu-Sat: 11AM-1AM, Sun: 12PM-10PM",
        "logo": "http://greendotstables.com/wp-content/uploads/2011/09/logo-greendot1.png",
        "name": "Green Dot Stables",
        "phone_number": "(313) 962-5588",
        "postal_code": "48216",
        "state": "MI",
        "website": "http://greendotstables.com"
    },
    {
        "address": "118 W Lafayette Blvd",
        "city": "Detroit",
        "country": "USA",
        "e": "13",
        "hours": "Mon-Thu: 9AM-3AM, Fri-Sat: 8AM-4AM, Sun: 9AM-3AM",
        "logo": "",
        "name": "Lafayette Coney Island",
        "phone_number": "(313) 964-8198",
        "postal_code": "48226",
        "state": "MI",
        "website": ""
    },
    {
        "address": "470 W Canfield Street",
        "city": "Detroit",
        "country": "USA",
        "e": "14",
        "hours": "Mon-Thu: 11AM-12AM, Fri-Sat: 11AM-1AM, Sun: 12PM-12AM",
        "logo": "http://cdn2.sportngin.com/attachments/text_block/4718/9955/MCBW_logo_small.jpg",
        "name": "Motor City Brewing Works",
        "phone_number": "(313) 832-2700",
        "postal_code": "48201",
        "state": "MI",
        "website": "http://www.motorcitybeer.com"
    },
    {
        "address": "1300 Porter Street",
        "city": "Detroit",
        "country": "USA",
        "e": "15",
        "hours": "Mon-Sat: 11AM-9PM, Sun: 10AM-3PM (Brunch Only)",
        "logo": "https://d2nyfqh3g1stw3.cloudfront.net/photos/31914_624196067606904_1850671854_n_15699.jpg",
        "name": "Mudgie's Deli",
        "phone_number": "(313) 961-2000",
        "postal_code": "48226",
        "state": "MI",
        "website": "http://www.mudgiesdeli.com"
    },
    {
        "address": "3921 2nd Avenue",
        "city": "Detroit",
        "country": "USA",
        "e": "16",
        "hours": "Mon-Fri: 11AM-11PM, Sat-Sun: 10AM-11PM",
        "logo": "http://www.seldenstandard.com/wp-content/themes/selden-std/images/selden-standard.jpg",
        "name": "Selden Standard",
        "phone_number": "(313) 438-5055",
        "postal_code": "48201",
        "state": "MI",
        "website": "http://www.seldenstandard.com"
    },
    {
        "address": "2457 Russell St",
        "city": "Detroit",
        "country": "USA",
        "e": "17",
        "hours": "Tue-Thu: 11AM-8:30PM, Fri-Sat: 11AM-10PM",
        "logo": "http://supinopizzeria.com/SUPINOwebsite.png",
        "name": "Supino Pizzeria",
        "phone_number": "(313) 567-7879",
        "postal_code": "48207",
        "state": "MI",
        "website": "http://supinopizzeria.com"
    },
    {
        "address": "1500 Woodward Avenue",
        "city": "Detroit",
        "country": "USA",
        "e": "18",
        "hours": "Mon-Thu: 4PM-12AM, Fri-Sat: 4PM-2AM",
        "logo": "http://www.wrightdetroit.com/subdued666/wp-content/uploads/2014/12/logo-light-stack.png",
        "name": "Wright & Co.",
        "phone_number": "(313) 962-7711)",
        "postal_code": "48226",
        "state": "MI",
        "website": "http://www.wrightdetroit.com"
    },
    {
        "address": "42000 Grand River Avenue",
        "city": "Novi",
        "country": "USA",
        "e": "19",
        "hours": "",
        "logo": "http://ascension.beer/wp-2327WLKWMK/cordelia-blog-data/storage/asset/ascension-brewing-company-png-color-w-black-bg--website-logo-4455.jpg",
        "name": "Ascension Brewing Company",
        "phone_number": "(248) 767-6296",
        "postal_code": "48375",
        "state": "MI",
        "website": "http://ascension.beer"
    },
    {
        "address": "28939 Woodward Avenue",
        "city": "Berkley",
        "country": "USA",
        "e": "20",
        "hours": "Mon-Thu: 11AM-10PM, Fri-Sat: 11AM-11PM, Sun: 11AM-9PM",
        "logo": "https://scontent-iad3-1.xx.fbcdn.net/hphotos-xpa1/v/t1.0-9/1470334_711554282196425_635382827_n.jpg?oh=328d74eea8afe67a4425c0c34a8b8119&oe=5654EE6F",
        "name": "Crispelli's Bakery & Pizzeria",
        "phone_number": "(248) 591-3300",
        "postal_code": "48072",
        "state": "MI",
        "website": "http://crispellis.com"
    },
    {
        "address": "6690 Orchard Lake Road",
        "city": "West Bloomfield",
        "country": "USA",
        "e": "21",
        "hours": "Mon-Thu: 11AM-10PM, Fri-Sat: 11AM-11PM, Sun: 11AM-9PM",
        "logo": "https://scontent-iad3-1.xx.fbcdn.net/hphotos-xpf1/v/t1.0-9/10171105_1417410821862930_6241325240174541637_n.jpg?oh=5648a7cf54047e94f31553c111e79529&oe=5659E642",
        "name": "Crispelli's Bakery & Pizzeria",
        "phone_number": "(248) 254-4760",
        "postal_code": "48322",
        "state": "MI",
        "website": "http://crispellis.com"
    },
    {
        "address": "176 N Adams Road",
        "city": "Rochester Hills",
        "country": "USA",
        "e": "22",
        "hours": "Mon-Thu: 11:30AM-9:30PM, Fri-Sat: 11:30AM-10:30PM, Sun: 11:30AM-9PM",
        "logo": "http://i.cdn.turner.com/nba/nba/teamsites/images/legacy/cavaliers/bspot_logo_250.jpg",
        "name": "B Spot",
        "phone_number": "(248) 218-6001",
        "postal_code": "49309",
        "state": "MI",
        "website": "http://bspotburgers.com"
    },
    {
        "address": "849 Penniman Avenue",
        "city": "Plymouth",
        "country": "USA",
        "e": "23",
        "hours": "Tue-Thu: 4PM-10PM, Fri-Sat: 4PM-11PM",
        "logo": "http://www.pizzanapoletana.org/public/assoc/Cellar-logo.jpg",
        "name": "Pizza e Vino",
        "phone_number": "(734) 254-0275",
        "postal_code": "48170",
        "state": "MI",
        "website": "http://www.cellar849.com"
    }
]
